{
  "type": "FeatureCollection",
  "generator": "JOSM",
  "features": [
    {
      "type": "Feature",
      "properties": {
        "name": "Sam's Bar",
        "type": "bar"
      },
      "geometry": {
        "type": "Point",
        "coordinates": [85.31007012564, 27.71641840298]
      }
    },
    {
      "type": "Feature",
      "properties": {
        "name": "Newa Lahana",
        "type": "food"
      },
      "geometry": {
        "type": "Point",
        "coordinates": [85.27445850783, 27.67899090753]
      }
    },
    {
      "type": "Feature",
      "properties": {
        "name": "Pimbahal Chips",
        "type": "food"
      },
      "geometry": {
        "type": "Point",
        "coordinates": [85.32112873751, 27.67541401772]
      }
    },
    {
      "type": "Feature",
      "properties": {
        "name": "Everest momo",
        "type": "food"
      },
      "geometry": {
        "type": "Point",
        "coordinates": [85.32830241134, 27.71088351806]
      }
    },
    {
      "type": "Feature",
      "properties": {
        "name": "Public Restroom",
        "type": "toilet"
      },
      "geometry": {
        "type": "Point",
        "coordinates": [85.32521352935, 27.67213558894]
      }
    },
    {
      "type": "Feature",
      "properties": {
        "name": "Local Jeri-Swari",
        "type": "food"
      },
      "geometry": {
        "type": "Point",
        "coordinates": [85.31208713762, 27.70763567161]
      }
    },
    {
      "type": "Feature",
      "properties": {
        "type": "food",
        "name": "TipTop"
      },
      "geometry": {
        "type": "Point",
        "coordinates": [85.32192191563, 27.66918941425]
      }
    },
    {
      "type": "Feature",
      "properties": {
        "name": "Khapinchhen Restroom",
        "type": "toilet"
      },
      "geometry": {
        "type": "Point",
        "coordinates": [85.3279472909, 27.67359308304]
      }
    },
    {
      "type": "Feature",
      "properties": {
        "name": "Roadhouse Cafe",
        "type": "food"
      },
      "geometry": {
        "type": "Point",
        "coordinates": [85.31302298081, 27.67610348551]
      }
    },
    {
      "type": "Feature",
      "properties": {
        "name": "Parking",
        "type": "parking"
      },
      "geometry": {
        "type": "Polygon",
        "coordinates": [
          [
            [85.32145018904, 27.67912788341],
            [85.32172438894, 27.67889506268],
            [85.32194158727, 27.67908848223],
            [85.3217843595, 27.67943228098],
            [85.32145018904, 27.67912788341]
          ]
        ]
      }
    },
    {
      "type": "Feature",
      "properties": {
        "name": "Taza ",
        "type": "food"
      },
      "geometry": {
        "type": "Point",
        "coordinates": [85.3118792673, 27.68337740663]
      }
    },
    {
      "type": "Feature",
      "properties": {
        "type": "toilet",
        "name": "Dhaugal Public Toilet"
      },
      "geometry": {
        "type": "Point",
        "coordinates": [85.32319139308, 27.67509322999]
      }
    },
    {
      "type": "Feature",
      "properties": {
        "type": "visit",
        "name": "Swayambhunath Stupa"
      },
      "geometry": {
        "type": "Point",
        "coordinates": [85.29041318457, 27.71493527443]
      }
    },
    {
      "type": "Feature",
      "properties": {
        "name": "Le Sherpa",
        "type": "food"
      },
      "geometry": {
        "type": "Point",
        "coordinates": [85.32816413298, 27.73188594891]
      }
    },
    {
      "type": "Feature",
      "properties": {
        "type": "visit",
        "name": "Panauti"
      },
      "geometry": {
        "type": "Point",
        "coordinates": [85.51712951557, 27.58501151932]
      }
    },
    {
      "type": "Feature",
      "properties": {
        "name": "Sasa Twa",
        "type": "food"
      },
      "geometry": {
        "type": "Point",
        "coordinates": [85.27251034664, 27.67815810585]
      }
    },
    {
      "type": "Feature",
      "properties": {
        "id": "5",
        "type": "venue",
        "programs": "Searching for the European Roller;Hillside Projects;Jatayu;Prasiit Sthapit & Shristi Shrestha;Residency Open House;Jonas Böttern, Nilanjana Nandy, Ajay Narsingh Rana",
        "name": "Namkha"
      },
      "geometry": {
        "type": "Point",
        "coordinates": [85.32534482244, 27.67664165008]
      }
    },
    {
      "type": "Feature",
      "properties": {
        "name": "Irish Pub",
        "type": "bar"
      },
      "geometry": {
        "type": "Point",
        "coordinates": [85.31751660935, 27.71820747644]
      }
    },
    {
      "type": "Feature",
      "properties": {
        "name": "Gallery Mcube Toilet",
        "type": "toilet"
      },
      "geometry": {
        "type": "Point",
        "coordinates": [85.32278863033, 27.67969802973]
      }
    },
    {
      "type": "Feature",
      "properties": {
        "type": "bar",
        "name": "Kyampa: The Social Hub"
      },
      "geometry": {
        "type": "Point",
        "coordinates": [85.30706581956, 27.68515095372]
      }
    },
    {
      "type": "Feature",
      "properties": {
        "name": "The Yellow House",
        "type": "food"
      },
      "geometry": {
        "type": "Point",
        "coordinates": [85.30614007715, 27.68233105108]
      }
    },
    {
      "type": "Feature",
      "properties": {
        "name": "Jeri-Swari & Gwaramari",
        "type": "food"
      },
      "geometry": {
        "type": "Point",
        "coordinates": [85.32339342889, 27.67453450307]
      }
    },
    {
      "type": "Feature",
      "properties": {
        "name": "Coffee Tea & Me",
        "type": "food"
      },
      "geometry": {
        "type": "Point",
        "coordinates": [85.32539898542, 27.67433860178]
      }
    },
    {
      "type": "Feature",
      "properties": {
        "name": "Lhakpa's Chulo",
        "type": "food"
      },
      "geometry": {
        "type": "Point",
        "coordinates": [85.31286142543, 27.67556225406]
      }
    },
    {
      "type": "Feature",
      "properties": {
        "name": "Swadista Momo",
        "type": "food"
      },
      "geometry": {
        "type": "Point",
        "coordinates": [85.3212646573, 27.67778894319]
      }
    },
    {
      "type": "Feature",
      "properties": {
        "name": "Parking",
        "type": "parking"
      },
      "geometry": {
        "type": "Polygon",
        "coordinates": [
          [
            [85.3224590246, 27.67605733458],
            [85.32238248915, 27.67597404145],
            [85.32255293215, 27.67590249758],
            [85.32262903878, 27.67598556984],
            [85.3224590246, 27.67605733458]
          ]
        ]
      }
    },
    {
      "type": "Feature",
      "properties": {
        "name": "Chyasal Hiti",
        "programs": "Minmini;Sriram Murali;Feather Library;Esha Munshi;Chimeki Chara;Abhishek Maharjan, Babin Tandukar, Kumod Parajuli, Kushal Raj Pandey, Nikita Shrestha Shakya, Om Prakash Yadav, Prasiit Sthapit, Rabindra Man Tamrakar, Roshan Manandhar, Sadip Dangol, Shatruhan Kumar Ray (Pandey), Sunil Manandhar, THC Photography Nepal",
        "id": "4",
        "type": "venue"
      },
      "geometry": {
        "type": "Point",
        "coordinates": [85.32817906554, 27.6746669488]
      }
    },
    {
      "type": "Feature",
      "properties": {
        "name": "Vino Bistro",
        "type": "food"
      },
      "geometry": {
        "type": "Point",
        "coordinates": [85.31984529616, 27.72033163604]
      }
    },
    {
      "type": "Feature",
      "properties": {
        "type": "infopoint",
        "name": "Yalamaya Kendra"
      },
      "geometry": {
        "type": "Point",
        "coordinates": [85.32077439965, 27.67798572577]
      }
    },
    {
      "type": "Feature",
      "properties": {
        "type": "visit",
        "name": "Dhulikhel"
      },
      "geometry": {
        "type": "Point",
        "coordinates": [85.5534048852, 27.62072308466]
      }
    },
    {
      "type": "Feature",
      "properties": {
        "name": "Jimbu Thakali",
        "type": "food"
      },
      "geometry": {
        "type": "Point",
        "coordinates": [85.30981206872, 27.67706794511]
      }
    },
    {
      "type": "Feature",
      "properties": {
        "name": "Patan house",
        "id": "1",
        "type": "venue",
        "programs": "A Very Clear Picture;Alana Hunt;Sungabha: Encounters in the Wild;Abu Hang Samuel;Drawing from Nature;Hemlata Pradhan & Himalayan Trust for Natural History Art (HTNHA)"
      },
      "geometry": {
        "type": "Point",
        "coordinates": [85.32296738793, 27.67483001001]
      }
    },
    {
      "type": "Feature",
      "properties": {
        "type": "bar",
        "name": "Purple Haze Rock Bar"
      },
      "geometry": {
        "type": "Point",
        "coordinates": [85.31043084973, 27.71478429755]
      }
    },
    {
      "type": "Feature",
      "properties": {
        "type": "bar",
        "name": "Base Camp"
      },
      "geometry": {
        "type": "Point",
        "coordinates": [85.30992649575, 27.68071279088]
      }
    },
    {
      "type": "Feature",
      "properties": {
        "programs": "The Skin of Chitwan;Nepal Picture Library;The World like a Jewel in the Hand;Ariella Aïsha Azoulay",
        "id": "2",
        "name": "Bahadur Shah Baithak",
        "type": "venue"
      },
      "geometry": {
        "type": "Point",
        "coordinates": [85.32566477044, 27.67371099353]
      }
    },
    {
      "type": "Feature",
      "properties": {
        "name": "Honacha",
        "type": "food"
      },
      "geometry": {
        "type": "Point",
        "coordinates": [85.32480600178, 27.67367364441]
      }
    },
    {
      "type": "Feature",
      "properties": {
        "name": "Delicious Gwaramari",
        "type": "food"
      },
      "geometry": {
        "type": "Point",
        "coordinates": [85.30722212935, 27.70763010681]
      }
    },
    {
      "type": "Feature",
      "properties": {
        "name": "Annamaya",
        "type": "food"
      },
      "geometry": {
        "type": "Point",
        "coordinates": [85.31143548623, 27.67755652697]
      }
    },
    {
      "type": "Feature",
      "properties": {
        "name": "Nandini Food Court",
        "type": "food"
      },
      "geometry": {
        "type": "Point",
        "coordinates": [85.32551677065, 27.67489990431]
      }
    },
    {
      "type": "Feature",
      "properties": {
        "name": "The Lunch Box",
        "type": "food"
      },
      "geometry": {
        "type": "Point",
        "coordinates": [85.31571110711, 27.68615535395]
      }
    },
    {
      "type": "Feature",
      "properties": {
        "name": "Parking",
        "type": "parking"
      },
      "geometry": {
        "type": "Polygon",
        "coordinates": [
          [
            [85.32083469491, 27.67879445325],
            [85.32089992465, 27.67882464398],
            [85.32084561691, 27.67908544085],
            [85.3207102041, 27.67905848351],
            [85.32083469491, 27.67879445325]
          ]
        ]
      }
    },
    {
      "type": "Feature",
      "properties": {
        "programs": "Seeds Shall Set Us Free;Munem Wasif;Ikamo Tlalli - Earthless;Mónica Alcázar-Duarte",
        "name": "Gallery Mcube",
        "id": "6",
        "type": "venue"
      },
      "geometry": {
        "type": "Point",
        "coordinates": [85.32270363437, 27.67987849074]
      }
    },
    {
      "type": "Feature",
      "properties": {
        "name": "Basantapur Durbar Square",
        "type": "visit"
      },
      "geometry": {
        "type": "Point",
        "coordinates": [85.30751633311, 27.70407517875]
      }
    },
    {
      "type": "Feature",
      "properties": {
        "name": "Jimbu Thakali",
        "type": "food"
      },
      "geometry": {
        "type": "Point",
        "coordinates": [85.33052940572, 27.71716012852]
      }
    },
    {
      "type": "Feature",
      "properties": {
        "name": "Dhokaima Toilet",
        "type": "toilet"
      },
      "geometry": {
        "type": "Point",
        "coordinates": [85.32090192644, 27.67808697595]
      }
    },
    {
      "type": "Feature",
      "properties": {
        "type": "bar",
        "name": "Beers and Cheers"
      },
      "geometry": {
        "type": "Point",
        "coordinates": [85.31220930742, 27.67851663236]
      }
    },
    {
      "type": "Feature",
      "properties": {
        "name": "Raithaane",
        "type": "food"
      },
      "geometry": {
        "type": "Point",
        "coordinates": [85.31591131682, 27.6848831669]
      }
    },
    {
      "type": "Feature",
      "properties": {
        "id": "3",
        "programs": "Indigenous Knowledge Portal;KTK-Belt Project;What Plants Were Called Before They Had a Name (Guatemala), 2019-2021;Uriel Orlow; As we know them: Bird names in Tharu;DB Chaudhary",
        "name": "Khapinchhe",
        "type": "venue"
      },
      "geometry": {
        "type": "Point",
        "coordinates": [85.32778680644, 27.67355435481]
      }
    },
    {
      "type": "Feature",
      "properties": {
        "name": "Parking",
        "type": "parking"
      },
      "geometry": {
        "type": "Polygon",
        "coordinates": [
          [
            [85.32541321753, 27.67226732399],
            [85.3253833363, 27.6721916264],
            [85.32570535356, 27.6718815477],
            [85.32580459352, 27.67200181687],
            [85.32541321753, 27.67226732399]
          ]
        ]
      }
    },
    {
      "type": "Feature",
      "properties": {
        "type": "bar",
        "name": "Electric Pagoda"
      },
      "geometry": {
        "type": "Point",
        "coordinates": [85.30960990511, 27.71567336451]
      }
    },
    {
      "type": "Feature",
      "properties": {
        "type": "food",
        "name": "Fuji Bakery"
      },
      "geometry": {
        "type": "Point",
        "coordinates": [85.32031533694, 27.68184022554]
      }
    },
    {
      "type": "Feature",
      "properties": {
        "name": "Sherpa Chowmein",
        "type": "food"
      },
      "geometry": {
        "type": "Point",
        "coordinates": [85.32168053097, 27.67527489917]
      }
    },
    {
      "type": "Feature",
      "properties": {
        "name": "Jazz Upstairs",
        "type": "bar"
      },
      "geometry": {
        "type": "Point",
        "coordinates": [85.31945909115, 27.72084013482]
      }
    },
    {
      "type": "Feature",
      "properties": {
        "name": "Himalayan Java Coffee",
        "type": "food"
      },
      "geometry": {
        "type": "Point",
        "coordinates": [85.32546881757, 27.67230864685]
      }
    },
    {
      "type": "Feature",
      "properties": {
        "name": "Hamro Vegan",
        "type": "food"
      },
      "geometry": {
        "type": "Point",
        "coordinates": [85.31953822139, 27.67171593871]
      }
    },
    {
      "type": "Feature",
      "properties": {
        "name": "Swotha",
        "type": "infopoint"
      },
      "geometry": {
        "type": "Point",
        "coordinates": [85.32549708845, 27.67471104052]
      }
    },
    {
      "type": "Feature",
      "properties": {
        "name": "Juice Mandala",
        "type": "food"
      },
      "geometry": {
        "type": "Point",
        "coordinates": [85.314963587, 27.67590535122]
      }
    },
    {
      "type": "Feature",
      "properties": {
        "name": "Bahadur Shah Baithak Restroom",
        "type": "toilet"
      },
      "geometry": {
        "type": "Point",
        "coordinates": [85.32535138768, 27.67380181659]
      }
    },
    {
      "type": "Feature",
      "properties": {
        "type": "visit",
        "name": "Patan Durbar Square"
      },
      "geometry": {
        "type": "Point",
        "coordinates": [85.32505411129, 27.67339531329]
      }
    },
    {
      "type": "Feature",
      "properties": {
        "name": "Piano Piano South",
        "type": "food"
      },
      "geometry": {
        "type": "Point",
        "coordinates": [85.31050867742, 27.68324669163]
      }
    },
    {
      "type": "Feature",
      "properties": {
        "name": "Dhokaima Cafe",
        "type": "food"
      },
      "geometry": {
        "type": "Point",
        "coordinates": [85.32093761069, 27.6782424725]
      }
    },
    {
      "type": "Feature",
      "properties": {
        "type": "visit",
        "name": "Boudhanath Stupa"
      },
      "geometry": {
        "type": "Point",
        "coordinates": [85.36200654602, 27.72143221653]
      }
    },
    {
      "type": "Feature",
      "properties": {
        "name": "Thakkhola Thakali",
        "type": "food"
      },
      "geometry": {
        "type": "Point",
        "coordinates": [85.30903764231, 27.67698853952]
      }
    },
    {
      "type": "Feature",
      "properties": {
        "type": "bar",
        "name": "Supper Club"
      },
      "geometry": {
        "type": "Point",
        "coordinates": [85.31026790654, 27.71560559086]
      }
    },
    {
      "type": "Feature",
      "properties": {
        "name": "Yala Choila Pasa",
        "type": "food"
      },
      "geometry": {
        "type": "Point",
        "coordinates": [85.32103004868, 27.67549426462]
      }
    },
    {
      "type": "Feature",
      "properties": {
        "name": "Jyapu Aila",
        "type": "food"
      },
      "geometry": {
        "type": "Point",
        "coordinates": [85.32302790009, 27.67471655566]
      }
    },
    {
      "type": "Feature",
      "properties": {
        "name": "OR2K",
        "type": "bar"
      },
      "geometry": {
        "type": "Point",
        "coordinates": [85.31094515097, 27.71483381956]
      }
    },
    {
      "type": "Feature",
      "properties": {
        "type": "toilet",
        "name": "Mangalbazar Tourist Toilet"
      },
      "geometry": {
        "type": "Point",
        "coordinates": [85.32543233383, 27.67297842429]
      }
    },
    {
      "type": "Feature",
      "properties": {
        "name": "Mechung momo",
        "type": "food"
      },
      "geometry": {
        "type": "Point",
        "coordinates": [85.36396914621, 27.72058055347]
      }
    },
    {
      "type": "Feature",
      "properties": {
        "type": "infopoint",
        "name": "Tajaa Pha"
      },
      "geometry": {
        "type": "Point",
        "coordinates": [85.32065686751, 27.67570735738]
      }
    },
    {
      "type": "Feature",
      "properties": {
        "name": "C-YA Vegan Restaurant ",
        "type": "food"
      },
      "geometry": {
        "type": "Point",
        "coordinates": [85.30796725014, 27.67923588449]
      }
    },
    {
      "type": "Feature",
      "properties": {
        "name": "Sanchyan Ramen",
        "type": "food"
      },
      "geometry": {
        "type": "Point",
        "coordinates": [85.32607514373, 27.67448790276]
      }
    },
    {
      "type": "Feature",
      "properties": {
        "name": "Moti Mahal",
        "type": "food"
      },
      "geometry": {
        "type": "Point",
        "coordinates": [85.31744550223, 27.71191507905]
      }
    },
    {
      "type": "Feature",
      "properties": {
        "name": "Bhaktapur Durbar Square",
        "type": "visit"
      },
      "geometry": {
        "type": "Point",
        "coordinates": [85.42835071113, 27.67231873264]
      }
    },
    {
      "type": "Feature",
      "properties": {
        "name": "Chez Caroline",
        "type": "food"
      },
      "geometry": {
        "type": "Point",
        "coordinates": [85.32280098244, 27.69434583186]
      }
    },
    {
      "type": "Feature",
      "properties": {
        "name": "Public Restroom",
        "type": "toilet"
      },
      "geometry": {
        "type": "Point",
        "coordinates": [85.32090203817, 27.67894471258]
      }
    },
    {
      "type": "Feature",
      "properties": {
        "type": "visit",
        "name": "Chandragiri Hills Cable Car"
      },
      "geometry": {
        "type": "Point",
        "coordinates": [85.21457793962, 27.68626703694]
      }
    },
    {
      "type": "Feature",
      "properties": {
        "name": "Newa Ghasa:",
        "type": "food"
      },
      "geometry": {
        "type": "Point",
        "coordinates": [85.32675753706, 27.67131924892]
      }
    }
  ]
}
